{"type": "FeatureCollection","features": [{"type": "Feature", "properties": {"name":"Aberdeen"}, "geometry": { "type": "Point", "coordinates": [-2.0913745,57.1452452]}},{"type": "Feature", "properties": {"name":"Abidjan"}, "geometry": { "type": "Point", "coordinates": [1.87000083,9.76998734]}},{"type": "Feature", "properties": {"name":"Abo Terminal"}, "geometry": { "type": "Point", "coordinates": [4.7849,5.684]}},{"type": "Feature", "properties": {"name":"Abu Kammash"}, "geometry": { "type": "Point", "coordinates": [11.7363481,33.073808]}},{"type": "Feature", "properties": {"name":"Alexandria"}, "geometry": { "type": "Point", "coordinates": [29.8944,31.199]}},{"type": "Feature", "properties": {"name":"Algeciras"}, "geometry": { "type": "Point", "coordinates": [-5.4278,36.1386]}},{"type": "Feature", "properties": {"name":"Alger"}, "geometry": { "type": "Point", "coordinates": [3.0601,36.7753]}},{"type": "Feature", "properties": {"name":"Altamira"}, "geometry": { "type": "Point", "coordinates": [-97.9299915,22.4061839]}},{"type": "Feature", "properties": {"name":"Ashdod"}, "geometry": { "type": "Point", "coordinates": [34.6601,31.8493]}},{"type": "Feature", "properties": {"name":"Augusta"}, "geometry": { "type": "Point", "coordinates": [15.2059,37.224]}},{"type": "Feature", "properties": {"name":"Bandar Abbas"}, "geometry": { "type": "Point", "coordinates": [56.2823,27.1762]}},{"type": "Feature", "properties": {"name":"Baniyas"}, "geometry": { "type": "Point", "coordinates": [35.944906,35.1820319]}},{"type": "Feature", "properties": {"name":"Barcelona"}, "geometry": { "type": "Point", "coordinates": [2.1889,41.3996]}},{"type": "Feature", "properties": {"name":"Batumi"}, "geometry": { "type": "Point", "coordinates": [41.6568,41.6658]}},{"type": "Feature", "properties": {"name":"Beirut"}, "geometry": { "type": "Point", "coordinates": [35.47843,33.8959203]}},{"type": "Feature", "properties": {"name":"Bonny"}, "geometry": { "type": "Point", "coordinates": [7.1668,4.4355]}},{"type": "Feature", "properties": {"name":"Bouri Terminal"}, "geometry": { "type": "Point", "coordinates": [13.2605,33.8476]}},{"type": "Feature", "properties": {"name":"Brass Terminal"}, "geometry": { "type": "Point", "coordinates": [6.2439,4.3037]}},{"type": "Feature", "properties": {"name":"Buenos Aires"}, "geometry": { "type": "Point", "coordinates": [-58.44598,-34.61287]}},{"type": "Feature", "properties": {"name":"Busan (Pusan)"}, "geometry": { "type": "Point", "coordinates": [129.0176,35.0803]}},{"type": "Feature", "properties": {"name":"Cagliari"}, "geometry": { "type": "Point", "coordinates": [9.096,39.2204]}},{"type": "Feature", "properties": {"name":"Cartagena"}, "geometry": { "type": "Point", "coordinates": [-75.518,10.4162]}},{"type": "Feature", "properties": {"name":"Casablanca"}, "geometry": { "type": "Point", "coordinates": [-7.6073,33.588]}},{"type": "Feature", "properties": {"name":"Catania"}, "geometry": { "type": "Point", "coordinates": [15.0306,37.4603]}},{"type": "Feature", "properties": {"name":"Caucedo"}, "geometry": { "type": "Point", "coordinates": [-69.6155,18.4355]}},{"type": "Feature", "properties": {"name":"Ceyhan"}, "geometry": { "type": "Point", "coordinates": [35.8331,37.0562]}},{"type": "Feature", "properties": {"name":"Chiwan"}, "geometry": { "type": "Point", "coordinates": [113.8925745,22.4823134]}},{"type": "Feature", "properties": {"name":"Colombo"}, "geometry": { "type": "Point", "coordinates": [79.8532704,6.934287]}},{"type": "Feature", "properties": {"name":"Dakar"}, "geometry": { "type": "Point", "coordinates": [-17.44703,14.693]}},{"type": "Feature", "properties": {"name":"Damietta"}, "geometry": { "type": "Point", "coordinates": [31.82137,31.41674]}},{"type": "Feature", "properties": {"name":"Damman"}, "geometry": { "type": "Point", "coordinates": [50.1571,26.474]}},{"type": "Feature", "properties": {"name":"Djibouti"}, "geometry": { "type": "Point", "coordinates": [43.1362,11.597]}},{"type": "Feature", "properties": {"name":"Dumai, Sumatra"}, "geometry": { "type": "Point", "coordinates": [101.4532617,1.6815017]}},{"type": "Feature", "properties": {"name":"Durban"}, "geometry": { "type": "Point", "coordinates": [31.0375,-29.87]}},{"type": "Feature", "properties": {"name":"Es Sider"}, "geometry": { "type": "Point", "coordinates": [18.36565,30.63684]}},{"type": "Feature", "properties": {"name":"Forcados"}, "geometry": { "type": "Point", "coordinates": [5.3534,5.4393]}},{"type": "Feature", "properties": {"name":"Fos-sur-Mer"}, "geometry": { "type": "Point", "coordinates": [4.945595,43.4380714]}},{"type": "Feature", "properties": {"name":"Gela"}, "geometry": { "type": "Point", "coordinates": [14.25075,37.06659]}},{"type": "Feature", "properties": {"name":"Gemlik"}, "geometry": { "type": "Point", "coordinates": [29.15707,40.43017]}},{"type": "Feature", "properties": {"name":"Gioia Tauro"}, "geometry": { "type": "Point", "coordinates": [15.9207,38.4271]}},{"type": "Feature", "properties": {"name":"Haifa"}, "geometry": { "type": "Point", "coordinates": [34.9885,32.8184]}},{"type": "Feature", "properties": {"name":"Hong Kong"}, "geometry": { "type": "Point", "coordinates": [114.1229,22.3434]}},{"type": "Feature", "properties": {"name":"Houston"}, "geometry": { "type": "Point", "coordinates": [-94.9171,29.7232]}},{"type": "Feature", "properties": {"name":"Istanbul"}, "geometry": { "type": "Point", "coordinates": [28.9652,41.0096]}},{"type": "Feature", "properties": {"name":"Jakarta, Java"}, "geometry": { "type": "Point", "coordinates": [106.827143,-6.1753167]}},{"type": "Feature", "properties": {"name":"Jawaharlal Neru (Nhava Sheva)"}, "geometry": { "type": "Point", "coordinates": [72.9644,18.9629]}},{"type": "Feature", "properties": {"name":"Jebel Ali"}, "geometry": { "type": "Point", "coordinates": [55.0687,24.9959]}},{"type": "Feature", "properties": {"name":"Jeddah"}, "geometry": { "type": "Point", "coordinates": [39.16404,21.58222]}},{"type": "Feature", "properties": {"name":"Kaohsiung"}, "geometry": { "type": "Point", "coordinates": [120.2893,22.6015]}},{"type": "Feature", "properties": {"name":"Karg Island"}, "geometry": { "type": "Point", "coordinates": [50.327,29.2347]}},{"type": "Feature", "properties": {"name":"Khor al Fakkan"}, "geometry": { "type": "Point", "coordinates": [56.3709,25.3584]}},{"type": "Feature", "properties": {"name":"Kingston"}, "geometry": { "type": "Point", "coordinates": [-76.8223,17.9829]}},{"type": "Feature", "properties": {"name":"Koper"}, "geometry": { "type": "Point", "coordinates": [13.7304909,45.5479552]}},{"type": "Feature", "properties": {"name":"Kulevi"}, "geometry": { "type": "Point", "coordinates": [42.2699,41.6578]}},{"type": "Feature", "properties": {"name":"La Skirra"}, "geometry": { "type": "Point", "coordinates": [10.1654431,34.3342894]}},{"type": "Feature", "properties": {"name":"La Spezia"}, "geometry": { "type": "Point", "coordinates": [9.8282255,44.107033]}},{"type": "Feature", "properties": {"name":"Lagos"}, "geometry": { "type": "Point", "coordinates": [3.38958521,6.44520751]}},{"type": "Feature", "properties": {"name":"Las Palmas"}, "geometry": { "type": "Point", "coordinates": [-15.4357,28.0514]}},{"type": "Feature", "properties": {"name":"Livorno"}, "geometry": { "type": "Point", "coordinates": [10.3073,43.5457]}},{"type": "Feature", "properties": {"name":"Los Angeles"}, "geometry": { "type": "Point", "coordinates": [-118.2113,33.7673]}},{"type": "Feature", "properties": {"name":"Malta"}, "geometry": { "type": "Point", "coordinates": [14.5244,35.918]}},{"type": "Feature", "properties": {"name":"Marsaxlokk"}, "geometry": { "type": "Point", "coordinates": [14.5441482,35.8418502]}},{"type": "Feature", "properties": {"name":"Marseille"}, "geometry": { "type": "Point", "coordinates": [5.356,43.3435]}},{"type": "Feature", "properties": {"name":"Massawa"}, "geometry": { "type": "Point", "coordinates": [39.4652299,15.6042235]}},{"type": "Feature", "properties": {"name":"Melbourne"}, "geometry": { "type": "Point", "coordinates": [144.9158,-37.8139]}},{"type": "Feature", "properties": {"name":"Melitah"}, "geometry": { "type": "Point", "coordinates": [12.230272,32.863944]}},{"type": "Feature", "properties": {"name":"Mersin, Icel"}, "geometry": { "type": "Point", "coordinates": [34.630542,36.81275]}},{"type": "Feature", "properties": {"name":"Milazzo"}, "geometry": { "type": "Point", "coordinates": [15.2734,38.2144]}},{"type": "Feature", "properties": {"name":"Misurata"}, "geometry": { "type": "Point", "coordinates": [15.0999979,32.37997316]}},{"type": "Feature", "properties": {"name":"Mombasa"}, "geometry": { "type": "Point", "coordinates": [39.6527,-4.047]}},{"type": "Feature", "properties": {"name":"Mongstad"}, "geometry": { "type": "Point", "coordinates": [5.0395,60.8157]}},{"type": "Feature", "properties": {"name":"Montreal"}, "geometry": { "type": "Point", "coordinates": [-73.6554,45.5027]}},{"type": "Feature", "properties": {"name":"Moudi Terminal"}, "geometry": { "type": "Point", "coordinates": [4.3611,8.4488]}},{"type": "Feature", "properties": {"name":"Napoli"}, "geometry": { "type": "Point", "coordinates": [14.2461,40.8529]}},{"type": "Feature", "properties": {"name":"New York"}, "geometry": { "type": "Point", "coordinates": [-73.9796,40.6979]}},{"type": "Feature", "properties": {"name":"Newark"}, "geometry": { "type": "Point", "coordinates": [-74.1821,40.731]}},{"type": "Feature", "properties": {"name":"Ningbo"}, "geometry": { "type": "Point", "coordinates": [121.54988,29.87203]}},{"type": "Feature", "properties": {"name":"Norfolk"}, "geometry": { "type": "Point", "coordinates": [-76.196,37.0127]}},{"type": "Feature", "properties": {"name":"Novorossiysk"}, "geometry": { "type": "Point", "coordinates": [37.7874,44.7108]}},{"type": "Feature", "properties": {"name":"Odessa"}, "geometry": { "type": "Point", "coordinates": [30.7296333,46.4713468]}},{"type": "Feature", "properties": {"name":"Olbia"}, "geometry": { "type": "Point", "coordinates": [9.5397,40.9206]}},{"type": "Feature", "properties": {"name":"Palermo"}, "geometry": { "type": "Point", "coordinates": [13.3473,38.1373]}},{"type": "Feature", "properties": {"name":"Piraeus"}, "geometry": { "type": "Point", "coordinates": [23.6486215,37.9441517]}},{"type": "Feature", "properties": {"name":"Port Everglades"}, "geometry": { "type": "Point", "coordinates": [-80.1083,26.0927]}},{"type": "Feature", "properties": {"name":"Port Kelang"}, "geometry": { "type": "Point", "coordinates": [101.3006,2.941]}},{"type": "Feature", "properties": {"name":"Port Said"}, "geometry": { "type": "Point", "coordinates": [32.3192,31.2567]}},{"type": "Feature", "properties": {"name":"Port Sudan"}, "geometry": { "type": "Point", "coordinates": [37.21124,19.61922]}},{"type": "Feature", "properties": {"name":"Porto Foxi"}, "geometry": { "type": "Point", "coordinates": [9.0293,39.0797]}},{"type": "Feature", "properties": {"name":"Porto Torres"}, "geometry": { "type": "Point", "coordinates": [8.3338,40.9513]}},{"type": "Feature", "properties": {"name":"Primorsk, Koivisto"}, "geometry": { "type": "Point", "coordinates": [28.622,60.3589]}},{"type": "Feature", "properties": {"name":"Pusan"}, "geometry": { "type": "Point", "coordinates": [129.0752365,35.179978]}},{"type": "Feature", "properties": {"name":"Qingdao"}, "geometry": { "type": "Point", "coordinates": [120.3189,36.0696]}},{"type": "Feature", "properties": {"name":"Rades"}, "geometry": { "type": "Point", "coordinates": [10.27697,36.7744]}},{"type": "Feature", "properties": {"name":"Ras Lanuf"}, "geometry": { "type": "Point", "coordinates": [18.41732,30.58686]}},{"type": "Feature", "properties": {"name":"Rio de Janeiro"}, "geometry": { "type": "Point", "coordinates": [-42.756,-22.239]}},{"type": "Feature", "properties": {"name":"Salalah"}, "geometry": { "type": "Point", "coordinates": [54.0957066,17.0148202]}},{"type": "Feature", "properties": {"name":"Salerno"}, "geometry": { "type": "Point", "coordinates": [14.7637,40.6864]}},{"type": "Feature", "properties": {"name":"Santa Panagia"}, "geometry": { "type": "Point", "coordinates": [15.2797,37.1086]}},{"type": "Feature", "properties": {"name":"Santos"}, "geometry": { "type": "Point", "coordinates": [-46.29,-23.8643]}},{"type": "Feature", "properties": {"name":"Savannah"}, "geometry": { "type": "Point", "coordinates": [-81.098,31.9996]}},{"type": "Feature", "properties": {"name":"Savona-Vado"}, "geometry": { "type": "Point", "coordinates": [8.4555,44.2661]}},{"type": "Feature", "properties": {"name":"Shanghai"}, "geometry": { "type": "Point", "coordinates": [121.4915,31.2246]}},{"type": "Feature", "properties": {"name":"Shekou"}, "geometry": { "type": "Point", "coordinates": [113.9161,22.4715]}},{"type": "Feature", "properties": {"name":"Sidi Kerir Terminal"}, "geometry": { "type": "Point", "coordinates": [29.6734,31.0516]}},{"type": "Feature", "properties": {"name":"Singapore"}, "geometry": { "type": "Point", "coordinates": [103.85283,1.29063]}},{"type": "Feature", "properties": {"name":"Skikda"}, "geometry": { "type": "Point", "coordinates": [6.89998164,36.8804219]}},{"type": "Feature", "properties": {"name":"Tangier Med"}, "geometry": { "type": "Point", "coordinates": [-5.7878,35.7913]}},{"type": "Feature", "properties": {"name":"Tanjong Pelepas"}, "geometry": { "type": "Point", "coordinates": [103.54571,1.3570015]}},{"type": "Feature", "properties": {"name":"Taranto"}, "geometry": { "type": "Point", "coordinates": [17.2997,40.4618]}},{"type": "Feature", "properties": {"name":"Tarragona"}, "geometry": { "type": "Point", "coordinates": [1.2546057,41.1172364]}},{"type": "Feature", "properties": {"name":"Tartous"}, "geometry": { "type": "Point", "coordinates": [35.8851686,34.8936203]}},{"type": "Feature", "properties": {"name":"Termini Imerese"}, "geometry": { "type": "Point", "coordinates": [13.7101,37.9872]}},{"type": "Feature", "properties": {"name":"Tess/Hartlepool"}, "geometry": { "type": "Point", "coordinates": [-1.2031,54.6947]}},{"type": "Feature", "properties": {"name":"Tianjinxingang"}, "geometry": { "type": "Point", "coordinates": [117.1980785,39.1235635]}},{"type": "Feature", "properties": {"name":"Tincan"}, "geometry": { "type": "Point", "coordinates": [3.34922,6.43433]}},{"type": "Feature", "properties": {"name":"Tokyo"}, "geometry": { "type": "Point", "coordinates": [139.7685224,35.6800712]}},{"type": "Feature", "properties": {"name":"Tripoli"}, "geometry": { "type": "Point", "coordinates": [13.1800117,32.8925]}},{"type": "Feature", "properties": {"name":"Tuapse"}, "geometry": { "type": "Point", "coordinates": [39.07206,44.09864]}},{"type": "Feature", "properties": {"name":"Tunis"}, "geometry": { "type": "Point", "coordinates": [10.18479,36.80011]}},{"type": "Feature", "properties": {"name":"Valencia"}, "geometry": { "type": "Point", "coordinates": [-0.3525,39.4228]}},{"type": "Feature", "properties": {"name":"Veracruz"}, "geometry": { "type": "Point", "coordinates": [-96.1242,19.2105]}},{"type": "Feature", "properties": {"name":"Xiamen"}, "geometry": { "type": "Point", "coordinates": [118.1537,24.5029]}},{"type": "Feature", "properties": {"name":"Xingang"}, "geometry": { "type": "Point", "coordinates": [117.7433,38.9788]}},{"type": "Feature", "properties": {"name":"Yantian Huangdong"}, "geometry": { "type": "Point", "coordinates": [114.283,22.5841]}},{"type": "Feature", "properties": {"name":"Yuzhnyy"}, "geometry": { "type": "Point", "coordinates": [31.1114,46.6255]}},{"type": "Feature", "properties": {"name":"Zawia Terminal"}, "geometry": { "type": "Point", "coordinates": [12.7224,32.7706]}}]}
